{
"type": "FeatureCollection",
"name": "Escolas_Estaduais",
"crs": { "type": "name", "properties": { "name": "urn:ogc:def:crs:OGC:1.3:CRS84" } },
"features": [
{ "type": "Feature", "properties": { "OBJECTID": 1, "tx_nome": "CE Almirante Tamandaré", "tx_endereco": "Av. Acúrcio Torres", "tx_numero": "s/n", "tx_telefone": "(21) 2608-3907", "li_bairro": 46, "tx_bairro": "Piratininga" }, "geometry": { "type": "Point", "coordinates": [ -43.091690578983204, -22.951326741772693 ] } },
{ "type": "Feature", "properties": { "OBJECTID": 2, "tx_nome": "CE Baltazar Bernardino", "tx_endereco": "Rua Mariz e Barros", "tx_numero": "444", "tx_telefone": "(21) 3611-1683", "li_bairro": 27, "tx_bairro": "Icaraí" }, "geometry": { "type": "Point", "coordinates": [ -43.101211459873333, -22.903157552180534 ] } },
{ "type": "Feature", "properties": { "OBJECTID": 3, "tx_nome": "CE Brigadeiro Castrioto", "tx_endereco": "Rua Professora Emylce", "tx_numero": "s/n", "tx_telefone": "(21) 99429-2096", "li_bairro": 58, "tx_bairro": "São Lourenço" }, "geometry": { "type": "Point", "coordinates": [ -43.110869683091188, -22.883228304294448 ] } },
{ "type": "Feature", "properties": { "OBJECTID": 4, "tx_nome": "CE Aurelino Leal", "tx_endereco": "Rua Presidente Pedreira", "tx_numero": "79", "tx_telefone": "(21) 3601-1585", "li_bairro": 28, "tx_bairro": "Ingá" }, "geometry": { "type": "Point", "coordinates": [ -43.125497814655041, -22.903300484265039 ] } },
{ "type": "Feature", "properties": { "OBJECTID": 5, "tx_nome": "CE Cizínio Soares Pinto", "tx_endereco": "Avenida Presidente Roosevelt", "tx_numero": "2", "tx_telefone": "(21) 3611-2373", "li_bairro": 57, "tx_bairro": "São Francisco" }, "geometry": { "type": "Point", "coordinates": [ -43.09407156523006, -22.914789416371395 ] } },
{ "type": "Feature", "properties": { "OBJECTID": 6, "tx_nome": "CE Conselheiro Macedo Soares", "tx_endereco": "Rua Dr. March", "tx_numero": "392", "tx_telefone": "(21) 3707-1109", "li_bairro": 5, "tx_bairro": "Barreto" }, "geometry": { "type": "Point", "coordinates": [ -43.092263368700202, -22.862820010381796 ] } },
{ "type": "Feature", "properties": { "OBJECTID": 8, "tx_nome": "CE David Capistrano", "tx_endereco": "Rua Prof Maria M Peixoto", "tx_numero": "s/n", "tx_telefone": "21) 3607-7905", "li_bairro": 52, "tx_bairro": "Santa Bárbara" }, "geometry": { "type": "Point", "coordinates": [ -43.047980366440221, -22.876823019047627 ] } },
{ "type": "Feature", "properties": { "OBJECTID": 9, "tx_nome": "CE Dr. Luciano Pestre", "tx_endereco": "Av.Pastor José Gomes de Souza", "tx_numero": "s/n", "tx_telefone": "(21) 3607-5987", "li_bairro": 12, "tx_bairro": "Caramujo" }, "geometry": { "type": "Point", "coordinates": [ -43.062691612463396, -22.883982943700346 ] } },
{ "type": "Feature", "properties": { "OBJECTID": 10, "tx_nome": "CE Dr Souza Soares", "tx_endereco": "Rodovia Amaral Peixoto", "tx_numero": "s/n", "tx_telefone": "(21) 3607-8180", "li_bairro": 63, "tx_bairro": "Varzea das Moças" }, "geometry": { "type": "Point", "coordinates": [ -42.977786773818721, -22.906197833610271 ] } },
{ "type": "Feature", "properties": { "OBJECTID": 11, "tx_nome": "CE Embaixador Raul Fernandes", "tx_endereco": "Rua Riodades", "tx_numero": "253", "tx_telefone": "(21) 3607-8693", "li_bairro": 24, "tx_bairro": "Fonseca" }, "geometry": { "type": "Point", "coordinates": [ -43.082135680291486, -22.876729113383274 ] } },
{ "type": "Feature", "properties": { "OBJECTID": 12, "tx_nome": "CE Duque De Caxias", "tx_endereco": "Rua Albino Pereira", "tx_numero": "300", "tx_telefone": "(21) 3611-2274", "li_bairro": 7, "tx_bairro": "Cachoeira" }, "geometry": { "type": "Point", "coordinates": [ -43.077707800173677, -22.909783269251637 ] } },
{ "type": "Feature", "properties": { "OBJECTID": 13, "tx_nome": "CE Guilherme Briggs", "tx_endereco": "Rua Dr. Mario Viana", "tx_numero": "625", "tx_telefone": "(21) 3611-0559", "li_bairro": 53, "tx_bairro": "Santa Rosa" }, "geometry": { "type": "Point", "coordinates": [ -43.089765370152257, -22.905225942994814 ] } },
{ "type": "Feature", "properties": { "OBJECTID": 14, "tx_nome": "CE Fernando Magalhães", "tx_endereco": "Av. Carlos Ermelindo Marins", "tx_numero": "50", "tx_telefone": "(21) 3611-0878", "li_bairro": 34, "tx_bairro": "Jurujuba" }, "geometry": { "type": "Point", "coordinates": [ -43.114317830788593, -22.9329636673287 ] } },
{ "type": "Feature", "properties": { "OBJECTID": 15, "tx_nome": "CE Hilário Ribeiro", "tx_endereco": "Alameda São Boa ventura", "tx_numero": "794", "tx_telefone": "(21) 3607-8180", "li_bairro": 24, "tx_bairro": "Fonseca" }, "geometry": { "type": "Point", "coordinates": [ -43.090229895019355, -22.881397303689543 ] } },
{ "type": "Feature", "properties": { "OBJECTID": 16, "tx_nome": "CE Joaquim Távora", "tx_endereco": "Parque Prefeito Ferraz", "tx_numero": "s/n", "tx_telefone": "s/n", "li_bairro": 27, "tx_bairro": "Icaraí" }, "geometry": { "type": "Point", "coordinates": [ -43.108423489834415, -22.905018848825151 ] } },
{ "type": "Feature", "properties": { "OBJECTID": 17, "tx_nome": "CE José Bonifácio", "tx_endereco": "Rua Doutor Carlos Maximiano", "tx_numero": "s/n", "tx_telefone": "(21) 3601-2476", "li_bairro": 58, "tx_bairro": "São Lourenço" }, "geometry": { "type": "Point", "coordinates": [ -43.105853106278857, -22.882954122006129 ] } },
{ "type": "Feature", "properties": { "OBJECTID": 18, "tx_nome": "CE Leopoldo Fróes", "tx_endereco": "Rua Reverendo Armando Ferreira", "tx_numero": "s/n", "tx_telefone": "(21) 3611-2375", "li_bairro": 37, "tx_bairro": "Maceió" }, "geometry": { "type": "Point", "coordinates": [ -43.067972441889673, -22.910164686435913 ] } },
{ "type": "Feature", "properties": { "OBJECTID": 19, "tx_nome": "CE Machado De Assis", "tx_endereco": "Rua Desembargador Lima Castro", "tx_numero": "97", "tx_telefone": "(21) 3607-1187", "li_bairro": 24, "tx_bairro": "Fonseca" }, "geometry": { "type": "Point", "coordinates": [ -43.085813645014419, -22.883483242061907 ] } },
{ "type": "Feature", "properties": { "OBJECTID": 20, "tx_nome": "CE Manuel de Abreu", "tx_endereco": "Rua Lopes Trovão", "tx_numero": "287", "tx_telefone": "(21) 3611-1493", "li_bairro": 27, "tx_bairro": "Icaraí" }, "geometry": { "type": "Point", "coordinates": [ -43.107183467190211, -22.902273281224183 ] } },
{ "type": "Feature", "properties": { "OBJECTID": 21, "tx_nome": "CE Maria Pereira Das Neves", "tx_endereco": "Trav. Doutor João Leitão", "tx_numero": "s/n", "tx_telefone": "s/n", "li_bairro": 16, "tx_bairro": "Charitas" }, "geometry": { "type": "Point", "coordinates": [ -43.098829278720814, -22.93358560983452 ] } },
{ "type": "Feature", "properties": { "OBJECTID": 22, "tx_nome": "CE Matemático Joaquim Gomes de Souza- Brasil/China", "tx_endereco": "Avenida Professor Silvio Picanço", "tx_numero": "s/n", "tx_telefone": "(21) 2715-4091", "li_bairro": 16, "tx_bairro": "Charitas" }, "geometry": { "type": "Point", "coordinates": [ -43.099662087782413, -22.934033520135763 ] } },
{ "type": "Feature", "properties": { "OBJECTID": 23, "tx_nome": "CE Paulo Assis Ribeiro", "tx_endereco": "Estrada Caetano Monteiro", "tx_numero": "814", "tx_telefone": "(21) 2707-4294", "li_bairro": 3, "tx_bairro": "Badu" }, "geometry": { "type": "Point", "coordinates": [ -43.057113246366896, -22.906848655822468 ] } },
{ "type": "Feature", "properties": { "OBJECTID": 24, "tx_nome": "CE Mullulo da Veiga", "tx_endereco": "Rua Coronel Guimarães", "tx_numero": "505", "tx_telefone": "(21) 2628-0279", "li_bairro": 20, "tx_bairro": "Engenhoca" }, "geometry": { "type": "Point", "coordinates": [ -43.099099766504729, -22.870406184073296 ] } },
{ "type": "Feature", "properties": { "OBJECTID": 25, "tx_nome": "CE Pinto Lima", "tx_endereco": "Rua São João", "tx_numero": "127", "tx_telefone": "(21) 3601-2578", "li_bairro": 15, "tx_bairro": "Centro" }, "geometry": { "type": "Point", "coordinates": [ -43.120644137672272, -22.891021650022882 ] } },
{ "type": "Feature", "properties": { "OBJECTID": 26, "tx_nome": "CE Profª Alcina Rodrigues Lima", "tx_endereco": "Estrada Francisco da Cruz Nunes", "tx_numero": "s/n", "tx_telefone": "(21) 3701-2423", "li_bairro": 30, "tx_bairro": "Itaipu" }, "geometry": { "type": "Point", "coordinates": [ -43.028337647654809, -22.952783335184598 ] } },
{ "type": "Feature", "properties": { "OBJECTID": 27, "tx_nome": "CE Raul Vidal", "tx_endereco": "Rua Dr. Fróes da Cruz", "tx_numero": "s/n", "tx_telefone": "(21) 3601-2354", "li_bairro": 15, "tx_bairro": "Centro" }, "geometry": { "type": "Point", "coordinates": [ -43.124744757379197, -22.886302539177702 ] } },
{ "type": "Feature", "properties": { "OBJECTID": 28, "tx_nome": "CE Zuleika Raposo Valladares", "tx_endereco": "Rua Salo Brand", "tx_numero": "s/n", "tx_telefone": "(21) 3601-2577", "li_bairro": 26, "tx_bairro": "Ilha da Conceição" }, "geometry": { "type": "Point", "coordinates": [ -43.114766997105825, -22.872932874074856 ] } },
{ "type": "Feature", "properties": { "OBJECTID": 29, "tx_nome": "CEJA Niteroi", "tx_endereco": "Av. Ernani Do Amaral Peixoto", "tx_numero": "707", "tx_telefone": "(21) 3601-2502", "li_bairro": 15, "tx_bairro": "Centro" }, "geometry": { "type": "Point", "coordinates": [ -43.116264467232149, -22.893542696137885 ] } },
{ "type": "Feature", "properties": { "OBJECTID": 30, "tx_nome": "CIEP Brizolão 251 Dona Maria Portugal", "tx_endereco": "Rodovia  Amaral Peixoto", "tx_numero": "km 3", "tx_telefone": "(21) 3701-2780", "li_bairro": 4, "tx_bairro": "Baldeador" }, "geometry": { "type": "Point", "coordinates": [ -43.055786937501793, -22.87701387897938 ] } },
{ "type": "Feature", "properties": { "OBJECTID": 31, "tx_nome": "CIEP 307 Djanira", "tx_endereco": "Av. Ewerton Xavier", "tx_numero": "417", "tx_telefone": "(21) 2608-8882", "li_bairro": 63, "tx_bairro": "Varzea das Moças" }, "geometry": { "type": "Point", "coordinates": [ -42.985116789082049, -22.910021112876365 ] } },
{ "type": "Feature", "properties": { "OBJECTID": 32, "tx_nome": "CIEP B.448 Ruy Frazão Soares", "tx_endereco": "Av. Irene Lopes Sodré", "tx_numero": "s/n", "tx_telefone": "(21) 2629-8247", "li_bairro": 18, "tx_bairro": "Engenho do Mato" }, "geometry": { "type": "Point", "coordinates": [ -43.009308875633351, -22.935686666647449 ] } },
{ "type": "Feature", "properties": { "OBJECTID": 33, "tx_nome": "CIEP 449 Gov. Leonel De Moura Brizola", "tx_endereco": "Rua Carlos Ermelindo Martins", "tx_numero": "s/n", "tx_telefone": "(21) 2705-5781", "li_bairro": 16, "tx_bairro": "Charitas" }, "geometry": { "type": "Point", "coordinates": [ -43.098126674950159, -22.933131363682833 ] } },
{ "type": "Feature", "properties": { "OBJECTID": 34, "tx_nome": "CIEP Brizolão 450 Emiliano Di Cavalcanti", "tx_endereco": "Estrada Caetano Monteiro", "tx_numero": "s/n", "tx_telefone": "(21) 2707-4064", "li_bairro": 3, "tx_bairro": "Badu" }, "geometry": { "type": "Point", "coordinates": [ -43.056620939898472, -22.907030009936094 ] } },
{ "type": "Feature", "properties": { "OBJECTID": 35, "tx_nome": "EE Doutor Memoria", "tx_endereco": "Rua Noronha Torrezão", "tx_numero": "625", "tx_telefone": "s/n", "li_bairro": 17, "tx_bairro": "Cubango" }, "geometry": { "type": "Point", "coordinates": [ -43.093744625393875, -22.88929441166281 ] } },
{ "type": "Feature", "properties": { "OBJECTID": 36, "tx_nome": "EE Menezes Vieira", "tx_endereco": "Rua Assis de Vasconcelos", "tx_numero": "30", "tx_telefone": "(21) 3707-1221", "li_bairro": 5, "tx_bairro": "Barreto" }, "geometry": { "type": "Point", "coordinates": [ -43.103452554282661, -22.869344897564869 ] } },
{ "type": "Feature", "properties": { "OBJECTID": 37, "tx_nome": "EE São Domingos Sávio", "tx_endereco": "Rua Dr. Martins Torres", "tx_numero": "223", "tx_telefone": "(21) 2612-2939", "li_bairro": 53, "tx_bairro": "Santa Rosa" }, "geometry": { "type": "Point", "coordinates": [ -43.092726705833883, -22.898800773819961 ] } },
{ "type": "Feature", "properties": { "OBJECTID": 38, "tx_nome": "EEEE Anne Sullivan", "tx_endereco": "Rua São João", "tx_numero": "127", "tx_telefone": "(21) 3601-2578", "li_bairro": 15, "tx_bairro": "Centro" }, "geometry": { "type": "Point", "coordinates": [ -43.120639477053231, -22.891059140504247 ] } },
{ "type": "Feature", "properties": { "OBJECTID": 39, "tx_nome": "IE Professor Ismael Coutinho", "tx_endereco": "Trav. Manuel Continentino", "tx_numero": "32", "tx_telefone": "(21) 3601-1892", "li_bairro": 56, "tx_bairro": "São Domingos" }, "geometry": { "type": "Point", "coordinates": [ -43.127289322064676, -22.899463319024594 ] } },
{ "type": "Feature", "properties": { "OBJECTID": 40, "tx_nome": "EEEE Prof. Álvaro Caetano De Oliveira", "tx_endereco": "Trav. Mululo Da Veiga", "tx_numero": "41", "tx_telefone": "(21) 3601-2504", "li_bairro": 5, "tx_bairro": "Barreto" }, "geometry": { "type": "Point", "coordinates": [ -43.09997192030395, -22.862690870919614 ] } },
{ "type": "Feature", "properties": { "OBJECTID": 41, "tx_nome": "Liceu Nilo Peçanha", "tx_endereco": "Av. Ernani do Amaral Peixoto", "tx_numero": "707", "tx_telefone": "(21) 3601-1562", "li_bairro": 15, "tx_bairro": "Centro" }, "geometry": { "type": "Point", "coordinates": [ -43.115988457253636, -22.893547779604958 ] } },
{ "type": "Feature", "properties": { "OBJECTID": 401, "tx_nome": "CE Conselheiro Josino", "tx_endereco": "Rua Teixeira de Freitas", "tx_numero": "421", "tx_telefone": "(21) 3607-1419", "li_bairro": 24, "tx_bairro": "Fonseca" }, "geometry": { "type": "Point", "coordinates": [ -43.074941837997926, -22.873367854320882 ] } }
]
}
